{"pagination":{"total_result":46,"start_page":0,"items_per_page":25,"items_on_page":25},"feed_publishers":[{"id":"sncf","name":"SNCF PIV Production","url":"","license":"Private (unspecified)"},{"id":"SNCF:sncf-piv","name":"SNCF PIV Production","url":"","license":"Private (unspecified)"}],"disruptions":[],"context":{"current_datetime":"20240615T140610","timezone":"Europe\/Paris"},"stop_points":[{"id":"stop_point:SNCF:87386052:RapidTransit","name":"Ach\u00e8res Grand Cormier","label":"Ach\u00e8res Grand Cormier (Saint-Germain-en-Laye)","coord":{"lon":"2.091962","lat":"48.955187"},"links":[],"administrative_regions":[{"id":"admin:fr:78551","name":"Saint-Germain-en-Laye","level":8,"zip_code":"78100;78112","label":"Saint-Germain-en-Laye (78100-78112)","insee":"78551","coord":{"lon":"2.0942792","lat":"48.8990413"}}],"stop_area":{"id":"stop_area:SNCF:87386052","name":"Ach\u00e8res Grand Cormier","codes":[{"type":"source","value":"87386052"},{"type":"uic","value":"87386052"}],"timezone":"Europe\/Paris","label":"Ach\u00e8res Grand Cormier (Saint-Germain-en-Laye)","coord":{"lon":"2.091962","lat":"48.955187"},"links":[]},"equipments":[]},{"id":"stop_point:SNCF:87381657:RapidTransit","name":"Ach\u00e8res Ville","label":"Ach\u00e8res Ville (Ach\u00e8res)","coord":{"lon":"2.07739","lat":"48.97011"},"links":[],"administrative_regions":[{"id":"admin:fr:78005","name":"Ach\u00e8res","level":8,"zip_code":"78260","label":"Ach\u00e8res (78260)","insee":"78005","coord":{"lon":"2.0698106","lat":"48.9606321"}}],"stop_area":{"id":"stop_area:SNCF:87381657","name":"Ach\u00e8res Ville","codes":[{"type":"source","value":"87381657"},{"type":"uic","value":"87381657"}],"timezone":"Europe\/Paris","label":"Ach\u00e8res Ville (Ach\u00e8res)","coord":{"lon":"2.07739","lat":"48.97011"},"links":[]},"equipments":[]},{"id":"stop_point:SNCF:87758599:RapidTransit","name":"Auber","label":"Auber (Paris)","coord":{"lon":"2.330432","lat":"48.871956"},"links":[],"administrative_regions":[{"id":"admin:fr:75056","name":"Paris","level":8,"zip_code":"75000;75116","label":"Paris (75000-75116)","insee":"75056","coord":{"lon":"2.3483915","lat":"48.8534951"}}],"stop_area":{"id":"stop_area:SNCF:87758599","name":"Auber","codes":[{"type":"source","value":"87758599"},{"type":"uic","value":"87758599"}],"timezone":"Europe\/Paris","label":"Auber (Paris)","coord":{"lon":"2.330432","lat":"48.871956"},"links":[]},"equipments":[]},{"id":"stop_point:SNCF:87758201:RapidTransit","name":"Boissy-Saint-L\u00e9ger","label":"Boissy-Saint-L\u00e9ger (Boissy-Saint-L\u00e9ger)","coord":{"lon":"2.505344","lat":"48.753076"},"links":[],"administrative_regions":[{"id":"admin:fr:94004","name":"Boissy-Saint-L\u00e9ger","level":8,"zip_code":"94470","label":"Boissy-Saint-L\u00e9ger (94470)","insee":"94004","coord":{"lon":"2.5124717","lat":"48.7479193"}}],"stop_area":{"id":"stop_area:SNCF:87758201","name":"Boissy-Saint-L\u00e9ger","codes":[{"type":"source","value":"87758201"},{"type":"uic","value":"87758201"}],"timezone":"Europe\/Paris","label":"Boissy-Saint-L\u00e9ger (Boissy-Saint-L\u00e9ger)","coord":{"lon":"2.505344","lat":"48.753076"},"links":[]},"equipments":[]},{"id":"stop_point:SNCF:87758326:RapidTransit","name":"Bry-sur-Marne","label":"Bry-sur-Marne (Bry-sur-Marne)","coord":{"lon":"2.526298","lat":"48.844328"},"links":[],"administrative_regions":[{"id":"admin:fr:94015","name":"Bry-sur-Marne","level":8,"zip_code":"94360","label":"Bry-sur-Marne (94360)","insee":"94015","coord":{"lon":"2.5193322","lat":"48.8352872"}}],"stop_area":{"id":"stop_area:SNCF:87758326","name":"Bry-sur-Marne","codes":[{"type":"source","value":"87758326"},{"type":"uic","value":"87758326"}],"timezone":"Europe\/Paris","label":"Bry-sur-Marne (Bry-sur-Marne)","coord":{"lon":"2.526298","lat":"48.844328"},"links":[]},"equipments":[]},{"id":"stop_point:SNCF:87754986:RapidTransit","name":"Bussy-Saint-Georges","label":"Bussy-Saint-Georges (Bussy-Saint-Georges)","coord":{"lon":"2.709774","lat":"48.836758"},"links":[],"administrative_regions":[{"id":"admin:fr:77058","name":"Bussy-Saint-Georges","level":8,"zip_code":"77600","label":"Bussy-Saint-Georges (77600)","insee":"77058","coord":{"lon":"2.6973858","lat":"48.8430257"}}],"stop_area":{"id":"stop_area:SNCF:87754986","name":"Bussy-Saint-Georges","codes":[{"type":"source","value":"87754986"},{"type":"uic","value":"87754986"}],"timezone":"Europe\/Paris","label":"Bussy-Saint-Georges (Bussy-Saint-Georges)","coord":{"lon":"2.709774","lat":"48.836758"},"links":[]},"equipments":[]},{"id":"stop_point:SNCF:87382655:RapidTransit","name":"Cergy le Haut","label":"Cergy le Haut (Cergy)","coord":{"lon":"2.011872","lat":"49.048493"},"links":[],"administrative_regions":[{"id":"admin:fr:95127","name":"Cergy","level":8,"zip_code":"95000;95800","label":"Cergy (95000-95800)","insee":"95127","coord":{"lon":"2.0388736","lat":"49.0527528"}}],"stop_area":{"id":"stop_area:SNCF:87382655","name":"Cergy le Haut","codes":[{"type":"source","value":"87382655"},{"type":"uic","value":"87382655"}],"timezone":"Europe\/Paris","label":"Cergy le Haut (Cergy)","coord":{"lon":"2.011872","lat":"49.048493"},"links":[]},"equipments":[]},{"id":"stop_point:SNCF:87381905:RapidTransit","name":"Cergy Pr\u00e9fecture","label":"Cergy Pr\u00e9fecture (Cergy)","coord":{"lon":"2.07982","lat":"49.03639"},"links":[],"administrative_regions":[{"id":"admin:fr:95127","name":"Cergy","level":8,"zip_code":"95000;95800","label":"Cergy (95000-95800)","insee":"95127","coord":{"lon":"2.0388736","lat":"49.0527528"}}],"stop_area":{"id":"stop_area:SNCF:87381905","name":"Cergy Pr\u00e9fecture","codes":[{"type":"source","value":"87381905"},{"type":"uic","value":"87381905"}],"timezone":"Europe\/Paris","label":"Cergy Pr\u00e9fecture (Cergy)","coord":{"lon":"2.07982","lat":"49.03639"},"links":[]},"equipments":[]},{"id":"stop_point:SNCF:87382499:RapidTransit","name":"Cergy Saint-Christophe","label":"Cergy Saint-Christophe (Cergy)","coord":{"lon":"2.034437","lat":"49.049691"},"links":[],"administrative_regions":[{"id":"admin:fr:95127","name":"Cergy","level":8,"zip_code":"95000;95800","label":"Cergy (95000-95800)","insee":"95127","coord":{"lon":"2.0388736","lat":"49.0527528"}}],"stop_area":{"id":"stop_area:SNCF:87382499","name":"Cergy Saint-Christophe","codes":[{"type":"source","value":"87382499"},{"type":"uic","value":"87382499"}],"timezone":"Europe\/Paris","label":"Cergy Saint-Christophe (Cergy)","coord":{"lon":"2.034437","lat":"49.049691"},"links":[]},"equipments":[]},{"id":"stop_point:SNCF:87758177:RapidTransit","name":"Champigny","label":"Champigny (Saint-Maur-des-Foss\u00e9s)","coord":{"lon":"2.509683","lat":"48.807303"},"links":[],"administrative_regions":[{"id":"admin:fr:94068","name":"Saint-Maur-des-Foss\u00e9s","level":8,"zip_code":"94100;94210","label":"Saint-Maur-des-Foss\u00e9s (94100-94210)","insee":"94068","coord":{"lon":"2.4853015","lat":"48.8033057"}}],"stop_area":{"id":"stop_area:SNCF:87758177","name":"Champigny","codes":[{"type":"source","value":"87758177"},{"type":"uic","value":"87758177"}],"timezone":"Europe\/Paris","label":"Champigny (Saint-Maur-des-Foss\u00e9s)","coord":{"lon":"2.509683","lat":"48.807303"},"links":[]},"equipments":[]},{"id":"stop_point:SNCF:87758003:RapidTransit","name":"Charles-de-Gaulle \u00c9toile","label":"Charles-de-Gaulle \u00c9toile (Paris)","coord":{"lon":"2.29502","lat":"48.874201"},"links":[],"administrative_regions":[{"id":"admin:fr:75056","name":"Paris","level":8,"zip_code":"75000;75116","label":"Paris (75000-75116)","insee":"75056","coord":{"lon":"2.3483915","lat":"48.8534951"}}],"stop_area":{"id":"stop_area:SNCF:87758003","name":"Charles-de-Gaulle \u00c9toile","codes":[{"type":"source","value":"87758003"},{"type":"uic","value":"87758003"}],"timezone":"Europe\/Paris","label":"Charles-de-Gaulle \u00c9toile (Paris)","coord":{"lon":"2.29502","lat":"48.874201"},"links":[]},"equipments":[]},{"id":"stop_point:SNCF:87758607:RapidTransit","name":"Ch\u00e2telet les Halles","label":"Ch\u00e2telet les Halles (Paris)","coord":{"lon":"2.34814","lat":"48.85983"},"links":[],"administrative_regions":[{"id":"admin:fr:75056","name":"Paris","level":8,"zip_code":"75000;75116","label":"Paris (75000-75116)","insee":"75056","coord":{"lon":"2.3483915","lat":"48.8534951"}}],"stop_area":{"id":"stop_area:SNCF:87758607","name":"Ch\u00e2telet les Halles","codes":[{"type":"source","value":"87758607"},{"type":"uic","value":"87758607"}],"timezone":"Europe\/Paris","label":"Ch\u00e2telet les Halles (Paris)","coord":{"lon":"2.34814","lat":"48.85983"},"links":[]},"equipments":[]},{"id":"stop_point:SNCF:87758060:RapidTransit","name":"Chatou - Croissy-sur-Seine","label":"Chatou - Croissy-sur-Seine (Chatou)","coord":{"lon":"2.156432","lat":"48.885406"},"links":[],"administrative_regions":[{"id":"admin:fr:78146","name":"Chatou","level":8,"zip_code":"78400","label":"Chatou (78400)","insee":"78146","coord":{"lon":"2.1573695","lat":"48.8897044"}}],"stop_area":{"id":"stop_area:SNCF:87758060","name":"Chatou - Croissy-sur-Seine","codes":[{"type":"source","value":"87758060"},{"type":"uic","value":"87758060"}],"timezone":"Europe\/Paris","label":"Chatou - Croissy-sur-Seine (Chatou)","coord":{"lon":"2.156432","lat":"48.885406"},"links":[]},"equipments":[]},{"id":"stop_point:SNCF:87381459:RapidTransit","name":"Conflans Fin d'Oise","label":"Conflans Fin d'Oise (Conflans-Sainte-Honorine)","coord":{"lon":"2.074587","lat":"48.989261"},"links":[],"administrative_regions":[{"id":"admin:fr:78172","name":"Conflans-Sainte-Honorine","level":8,"zip_code":"78700","label":"Conflans-Sainte-Honorine (78700)","insee":"78172","coord":{"lon":"2.0949768","lat":"48.9938791"}}],"stop_area":{"id":"stop_area:SNCF:87381459","name":"Conflans Fin d'Oise","codes":[{"type":"source","value":"87381459"},{"type":"uic","value":"87381459"}],"timezone":"Europe\/Paris","label":"Conflans Fin d'Oise (Conflans-Sainte-Honorine)","coord":{"lon":"2.074587","lat":"48.989261"},"links":[]},"equipments":[]},{"id":"stop_point:SNCF:87758128:RapidTransit","name":"Fontenay-sous-Bois","label":"Fontenay-sous-Bois (Fontenay-sous-Bois)","coord":{"lon":"2.464339","lat":"48.843448"},"links":[],"administrative_regions":[{"id":"admin:fr:94033","name":"Fontenay-sous-Bois","level":8,"zip_code":"94120","label":"Fontenay-sous-Bois (94120)","insee":"94033","coord":{"lon":"2.4749347","lat":"48.8490721"}}],"stop_area":{"id":"stop_area:SNCF:87758128","name":"Fontenay-sous-Bois","codes":[{"type":"source","value":"87758128"},{"type":"uic","value":"87758128"}],"timezone":"Europe\/Paris","label":"Fontenay-sous-Bois (Fontenay-sous-Bois)","coord":{"lon":"2.464339","lat":"48.843448"},"links":[]},"equipments":[]},{"id":"stop_point:SNCF:87386409:RapidTransit","name":"Houilles - Carri\u00e8res-sur-Seine","label":"Houilles - Carri\u00e8res-sur-Seine (Houilles)","coord":{"lon":"2.185083","lat":"48.919964"},"links":[],"administrative_regions":[{"id":"admin:fr:78311","name":"Houilles","level":8,"zip_code":"78800","label":"Houilles (78800)","insee":"78311","coord":{"lon":"2.1868998","lat":"48.92294159999999"}}],"stop_area":{"id":"stop_area:SNCF:87386409","name":"Houilles - Carri\u00e8res-sur-Seine","codes":[{"type":"source","value":"87386409"},{"type":"uic","value":"87386409"}],"timezone":"Europe\/Paris","label":"Houilles - Carri\u00e8res-sur-Seine (Houilles)","coord":{"lon":"2.185083","lat":"48.919964"},"links":[]},"equipments":[]},{"id":"stop_point:SNCF:87758144:RapidTransit","name":"Joinville-le-Pont","label":"Joinville-le-Pont (Joinville-le-Pont)","coord":{"lon":"2.463853","lat":"48.821055"},"links":[],"administrative_regions":[{"id":"admin:fr:94042","name":"Joinville-le-Pont","level":8,"zip_code":"94340","label":"Joinville-le-Pont (94340)","insee":"94042","coord":{"lon":"2.4668077","lat":"48.8183717"}}],"stop_area":{"id":"stop_area:SNCF:87758144","name":"Joinville-le-Pont","codes":[{"type":"source","value":"87758144"},{"type":"uic","value":"87758144"}],"timezone":"Europe\/Paris","label":"Joinville-le-Pont (Joinville-le-Pont)","coord":{"lon":"2.463853","lat":"48.821055"},"links":[]},"equipments":[]},{"id":"stop_point:SNCF:87758011:RapidTransit","name":"La Grande Arche de la D\u00e9fense","label":"La Grande Arche de la D\u00e9fense (Puteaux)","coord":{"lon":"2.238212","lat":"48.891718"},"links":[],"administrative_regions":[{"id":"admin:fr:92062","name":"Puteaux","level":8,"zip_code":"92800","label":"Puteaux (92800)","insee":"92062","coord":{"lon":"2.2368863","lat":"48.8841522"}}],"stop_area":{"id":"stop_area:SNCF:87758011","name":"La Grande Arche de la D\u00e9fense","codes":[{"type":"source","value":"87758011"},{"type":"uic","value":"87758011"}],"timezone":"Europe\/Paris","label":"La Grande Arche de la D\u00e9fense (Puteaux)","coord":{"lon":"2.238212","lat":"48.891718"},"links":[]},"equipments":[]},{"id":"stop_point:SNCF:87758185:RapidTransit","name":"La Varenne Saint-Hilaire - Chennevi\u00e8res-sur-Marne","label":"La Varenne Saint-Hilaire - Chennevi\u00e8res-sur-Marne (Saint-Maur-des-Foss\u00e9s)","coord":{"lon":"2.513141","lat":"48.794996"},"links":[],"administrative_regions":[{"id":"admin:fr:94068","name":"Saint-Maur-des-Foss\u00e9s","level":8,"zip_code":"94100;94210","label":"Saint-Maur-des-Foss\u00e9s (94100-94210)","insee":"94068","coord":{"lon":"2.4853015","lat":"48.8033057"}}],"stop_area":{"id":"stop_area:SNCF:87758185","name":"La Varenne Saint-Hilaire - Chennevi\u00e8res-sur-Marne","codes":[{"type":"source","value":"87758185"},{"type":"uic","value":"87758185"}],"timezone":"Europe\/Paris","label":"La Varenne Saint-Hilaire - Chennevi\u00e8res-sur-Marne (Saint-Maur-des-Foss\u00e9s)","coord":{"lon":"2.513141","lat":"48.794996"},"links":[]},"equipments":[]},{"id":"stop_point:SNCF:87758169:RapidTransit","name":"Le Parc de Saint-Maur RER","label":"Le Parc de Saint-Maur RER (Saint-Maur-des-Foss\u00e9s)","coord":{"lon":"2.485622","lat":"48.805162"},"links":[],"administrative_regions":[{"id":"admin:fr:94068","name":"Saint-Maur-des-Foss\u00e9s","level":8,"zip_code":"94100;94210","label":"Saint-Maur-des-Foss\u00e9s (94100-94210)","insee":"94068","coord":{"lon":"2.4853015","lat":"48.8033057"}}],"stop_area":{"id":"stop_area:SNCF:87758169","name":"Le Parc de Saint-Maur RER","codes":[{"type":"source","value":"87758169"},{"type":"uic","value":"87758169"}],"timezone":"Europe\/Paris","label":"Le Parc de Saint-Maur RER (Saint-Maur-des-Foss\u00e9s)","coord":{"lon":"2.485622","lat":"48.805162"},"links":[]},"equipments":[]},{"id":"stop_point:SNCF:87758078:RapidTransit","name":"Le V\u00e9sinet","label":"Le V\u00e9sinet (Le V\u00e9sinet)","coord":{"lon":"2.134687","lat":"48.890321"},"links":[],"administrative_regions":[{"id":"admin:fr:78650","name":"Le V\u00e9sinet","level":8,"zip_code":"78110","label":"Le V\u00e9sinet (78110)","insee":"78650","coord":{"lon":"2.1347291","lat":"48.894254"}}],"stop_area":{"id":"stop_area:SNCF:87758078","name":"Le V\u00e9sinet","codes":[{"type":"source","value":"87758078"},{"type":"uic","value":"87758078"}],"timezone":"Europe\/Paris","label":"Le V\u00e9sinet (Le V\u00e9sinet)","coord":{"lon":"2.134687","lat":"48.890321"},"links":[]},"equipments":[]},{"id":"stop_point:SNCF:87758086:RapidTransit","name":"Le V\u00e9sinet - Le Pecq","label":"Le V\u00e9sinet - Le Pecq (Le V\u00e9sinet)","coord":{"lon":"2.122268","lat":"48.898279"},"links":[],"administrative_regions":[{"id":"admin:fr:78650","name":"Le V\u00e9sinet","level":8,"zip_code":"78110","label":"Le V\u00e9sinet (78110)","insee":"78650","coord":{"lon":"2.1347291","lat":"48.894254"}}],"stop_area":{"id":"stop_area:SNCF:87758086","name":"Le V\u00e9sinet - Le Pecq","codes":[{"type":"source","value":"87758086"},{"type":"uic","value":"87758086"}],"timezone":"Europe\/Paris","label":"Le V\u00e9sinet - Le Pecq (Le V\u00e9sinet)","coord":{"lon":"2.122268","lat":"48.898279"},"links":[]},"equipments":[]},{"id":"stop_point:SNCF:87758367:RapidTransit","name":"Lognes","label":"Lognes (Lognes)","coord":{"lon":"2.633673","lat":"48.839098"},"links":[],"administrative_regions":[{"id":"admin:fr:77258","name":"Lognes","level":8,"zip_code":"77185","label":"Lognes (77185)","insee":"77258","coord":{"lon":"2.632722","lat":"48.8384157"}}],"stop_area":{"id":"stop_area:SNCF:87758367","name":"Lognes","codes":[{"type":"source","value":"87758367"},{"type":"uic","value":"87758367"}],"timezone":"Europe\/Paris","label":"Lognes (Lognes)","coord":{"lon":"2.633673","lat":"48.839098"},"links":[]},"equipments":[]},{"id":"stop_point:SNCF:87386425:RapidTransit","name":"Maisons-Laffitte","label":"Maisons-Laffitte (Maisons-Laffitte)","coord":{"lon":"2.144315","lat":"48.945639"},"links":[],"administrative_regions":[{"id":"admin:fr:78358","name":"Maisons-Laffitte","level":8,"zip_code":"78600","label":"Maisons-Laffitte (78600)","insee":"78358","coord":{"lon":"2.1450951","lat":"48.9461437"}}],"stop_area":{"id":"stop_area:SNCF:87386425","name":"Maisons-Laffitte","codes":[{"type":"source","value":"87386425"},{"type":"uic","value":"87386425"}],"timezone":"Europe\/Paris","label":"Maisons-Laffitte (Maisons-Laffitte)","coord":{"lon":"2.144315","lat":"48.945639"},"links":[]},"equipments":[]},{"id":"stop_point:SNCF:87754994:RapidTransit","name":"Marne la Vall\u00e9e - Chessy","label":"Marne la Vall\u00e9e - Chessy (Chessy)","coord":{"lon":"2.782218","lat":"48.869767"},"links":[],"administrative_regions":[{"id":"admin:fr:77111","name":"Chessy","level":8,"zip_code":"77700","label":"Chessy (77700)","insee":"77111","coord":{"lon":"2.7658363","lat":"48.8798792"}}],"stop_area":{"id":"stop_area:SNCF:87754994","name":"Marne la Vall\u00e9e - Chessy","codes":[{"type":"source","value":"87754994"},{"type":"uic","value":"87754994"}],"timezone":"Europe\/Paris","label":"Marne la Vall\u00e9e - Chessy (Chessy)","coord":{"lon":"2.782218","lat":"48.869767"},"links":[]},"equipments":[]}],"links":[{"href":"https:\/\/api.sncf.com\/v1\/coverage\/sncf\/stop_areas\/{stop_area.id}","templated":true,"rel":"stop_areas","type":"stop_area"},{"href":"https:\/\/api.sncf.com\/v1\/coverage\/sncf\/stop_points\/{stop_points.id}","templated":true,"rel":"stop_points","type":"stop_points"},{"href":"https:\/\/api.sncf.com\/v1\/coverage\/sncf\/stop_points\/{stop_points.id}\/route_schedules","rel":"route_schedules","type":"route_schedules","templated":true},{"href":"https:\/\/api.sncf.com\/v1\/coverage\/sncf\/stop_points\/{stop_points.id}\/stop_schedules","rel":"stop_schedules","type":"stop_schedules","templated":true},{"href":"https:\/\/api.sncf.com\/v1\/coverage\/sncf\/stop_points\/{stop_points.id}\/arrivals","rel":"arrivals","type":"arrivals","templated":true},{"href":"https:\/\/api.sncf.com\/v1\/coverage\/sncf\/stop_points\/{stop_points.id}\/departures","rel":"departures","type":"departures","templated":true},{"href":"https:\/\/api.sncf.com\/v1\/coverage\/sncf\/stop_points\/{stop_points.id}\/places_nearby","rel":"places_nearby","type":"places_nearby","templated":true},{"href":"https:\/\/api.sncf.com\/v1\/coverage\/sncf\/stop_points\/{stop_points.id}\/journeys","rel":"journeys","type":"journey","templated":true},{"href":"https:\/\/api.sncf.com\/v1\/coverage\/sncf\/lines\/line:SNCF:A\/stop_points?start_page=1","type":"next","templated":false},{"href":"https:\/\/api.sncf.com\/v1\/coverage\/sncf\/lines\/line:SNCF:A\/stop_points?start_page=1","type":"last","templated":false},{"href":"https:\/\/api.sncf.com\/v1\/coverage\/sncf\/lines\/line:SNCF:A\/stop_points","type":"first","templated":false}]}